{
  "type": "FeatureCollection",
  "features": [
    {
      "type": "Feature",
      "properties": {
        "company": "Richardson International",
        "name": "Richardson International — Global HQ",
        "type": "Headquarters",
        "location": "Winnipeg, Manitoba, Canada",
        "coordinates": [-97.1392, 49.8951],
        "commodities": "Canola, Oilseed, Oat"
      },
      "geometry": {
        "type": "Point",
        "coordinates": [-97.1392, 49.8951]
      }
    },
    {
      "type": "Feature",
      "properties": {
        "company": "Richardson International",
        "name": "Richardson Oilseed — Lethbridge Facility",
        "type": "Facility",
        "location": "Lethbridge, Alberta, Canada",
        "coordinates": [-112.847, 49.7001],
        "commodities": "Canola, Oilseed"
      },
      "geometry": {
        "type": "Point",
        "coordinates": [-112.847, 49.7001]
      }
    },
    {
      "type": "Feature",
      "properties": {
        "company": "Richardson International",
        "name": "Richardson Milling — South Sioux City Facility",
        "type": "Facility",
        "location": "South Sioux City, Nebraska, USA",
        "coordinates": [-96.4003, 42.4783],
        "commodities": "Oat"
      },
      "geometry": {
        "type": "Point",
        "coordinates": [-96.4003, 42.4783]
      }
    },
    {
      "type": "Feature",
      "properties": {
        "company": "Richardson International",
        "name": "Richardson Milling — Melfort Facility",
        "type": "Facility",
        "location": "Melfort, Saskatchewan, Canada",
        "coordinates": [-104.612, 52.7783],
        "commodities": "Oat"
      },
      "geometry": {
        "type": "Point",
        "coordinates": [-104.612, 52.7783]
      }
    },
    {
      "type": "Feature",
      "properties": {
        "company": "Richardson International",
        "name": "Richardson Milling — Oakville Facility",
        "type": "Facility",
        "location": "Oakville, Ontario, Canada",
        "coordinates": [-79.7662, 43.4675],
        "commodities": "Oat"
      },
      "geometry": {
        "type": "Point",
        "coordinates": [-79.7662, 43.4675]
      }
    }
  ]
}
